[
  {
    "name": "Van GĂślĂź",
    "lat": 38.65,
    "lon": 43.0,
    "radius": 0.45
  },
  {
    "name": "Tuz GĂślĂź",
    "lat": 38.78,
    "lon": 33.32,
    "radius": 0.22
  },
  {
    "name": "BeyĹehir GĂślĂź",
    "lat": 37.75,
    "lon": 31.55,
    "radius": 0.18
  },
  {
    "name": "EÄirdir GĂślĂź",
    "lat": 38.05,
    "lon": 30.88,
    "radius": 0.12
  },
  {
    "name": "Ä°znik GĂślĂź",
    "lat": 40.43,
    "lon": 29.55,
    "radius": 0.08
  },
  {
    "name": "Sapanca GĂślĂź",
    "lat": 40.71,
    "lon": 30.27,
    "radius": 0.04
  },
  {
    "name": "Manyas GĂślĂź",
    "lat": 40.18,
    "lon": 27.97,
    "radius": 0.05
  },
  {
    "name": "Uluabat GĂślĂź",
    "lat": 40.17,
    "lon": 28.65,
    "radius": 0.05
  },
  {
    "name": "Burdur GĂślĂź",
    "lat": 37.72,
    "lon": 30.18,
    "radius": 0.08
  },
  {
    "name": "AcÄągĂśl",
    "lat": 37.83,
    "lon": 29.88,
    "radius": 0.05
  },
  {
    "name": "ĂÄąldÄąr GĂślĂź",
    "lat": 41.05,
    "lon": 43.27,
    "radius": 0.05
  },
  {
    "name": "Hazar GĂślĂź",
    "lat": 38.5,
    "lon": 39.4,
    "radius": 0.05
  },
  {
    "name": "Salda GĂślĂź",
    "lat": 37.55,
    "lon": 29.68,
    "radius": 0.03
  },
  {
    "name": "AtatĂźrk BarajÄą",
    "lat": 37.5,
    "lon": 38.32,
    "radius": 0.18
  },
  {
    "name": "Keban BarajÄą",
    "lat": 38.8,
    "lon": 39.2,
    "radius": 0.2
  },
  {
    "name": "Karakaya BarajÄą",
    "lat": 38.23,
    "lon": 39.05,
    "radius": 0.12
  },
  {
    "name": "HirfanlÄą BarajÄą",
    "lat": 39.18,
    "lon": 33.55,
    "radius": 0.12
  },
  {
    "name": "AltÄąnkaya BarajÄą",
    "lat": 41.2,
    "lon": 35.7,
    "radius": 0.1
  }
]